{
  "cities": [
    {
      "cityName": "Lisbon",
      "country": "Portugal",
      "emoji": "ðŸ‡µðŸ‡¹",
      "date": "2027-10-31T15:59:59.138Z",
      "notes": "My favorite city so far!",
      "position": {
        "lat": 38.727881642324164,
        "lng": -9.140900099907554
      },
      "id": 73930385
    },
    {
      "cityName": "Madrid",
      "country": "Spain",
      "emoji": "ðŸ‡ªðŸ‡¸",
      "date": "2027-07-15T08:22:53.976Z",
      "notes": "",
      "position": {
        "lat": 40.46635901755316,
        "lng": -3.7133789062500004
      },
      "id": 17806751
    },
    {
      "cityName": "Berlin",
      "country": "Germany",
      "emoji": "ðŸ‡©ðŸ‡ª",
      "date": "2027-02-12T09:24:11.863Z",
      "notes": "Amazing ðŸ˜ƒ",
      "position": {
        "lat": 52.53586782505711,
        "lng": 13.376933665713324
      },
      "id": 98443197
    },
    {
      "id": "87e7",
      "cityName": "Bengaluru",
      "country": "India",
      "emoji": "ðŸ‡®ðŸ‡³",
      "date": "2024-04-12T10:24:39.736Z",
      "notes": "",
      "position": {
        "lat": "12.991349029298757",
        "lng": "77.62664794921876"
      }
    },
    {
      "id": "2a75",
      "cityName": "Rueda",
      "country": "Spain",
      "emoji": "ðŸ‡ªðŸ‡¸",
      "date": "2024-04-12T13:50:04.631Z",
      "notes": "",
      "position": {
        "lat": "41.440891120479975",
        "lng": "-4.960147255129471"
      }
    }
  ]
}